[
  {
    "id": "goias-biometano-fertilizantes",
    "name": "Goias - Biometano para Fertilizantes",
    "region": "Goias",
    "sector": "Agroindustria / Fertilizantes",
    "currentSource": "Gas natural",
    "recommendedRoute": "Biometano",
    "monthlyCostDefault": 200000,
    "investmentDefault": 1800000,
    "lat": -16.6869,
    "lng": -49.2648,
    "layerType": "biometano"
  },
  {
    "id": "goias-industria-fertilizantes-polo",
    "name": "Goias - Polo Industrial de Fertilizantes",
    "region": "Goias",
    "sector": "Agroindustria / Fertilizantes",
    "currentSource": "Gas natural",
    "recommendedRoute": "Biometano",
    "monthlyCostDefault": 230000,
    "investmentDefault": 2100000,
    "lat": -16.7005,
    "lng": -49.2744,
    "layerType": "industrias"
  },
  {
    "id": "ceara-h2-portuario",
    "name": "Ceara - Hub de Hidrogenio de Baixa Emissao",
    "region": "Ceara",
    "sector": "Quimica",
    "currentSource": "Energia eletrica convencional",
    "recommendedRoute": "Hidrogenio de baixa emissao",
    "monthlyCostDefault": 280000,
    "investmentDefault": 5200000,
    "lat": -3.7014,
    "lng": -38.5218,
    "layerType": "hidrogenio"
  },
  {
    "id": "santos-porto-verde",
    "name": "Sao Paulo - Porto de Santos (Corredor Verde)",
    "region": "Sao Paulo",
    "sector": "Logistica portuaria",
    "currentSource": "Diesel",
    "recommendedRoute": "Energia renovavel contratada",
    "monthlyCostDefault": 180000,
    "investmentDefault": 2400000,
    "lat": -23.9608,
    "lng": -46.3336,
    "layerType": "portos"
  },
  {
    "id": "bahia-biomassa-cimento",
    "name": "Bahia - Biomassa para Cimento",
    "region": "Bahia",
    "sector": "Cimento",
    "currentSource": "Combustivel fossil",
    "recommendedRoute": "Biomassa",
    "monthlyCostDefault": 160000,
    "investmentDefault": 1950000,
    "lat": -12.9777,
    "lng": -38.5016,
    "layerType": "industrias"
  },
  {
    "id": "mg-eletrificacao-mineracao",
    "name": "Minas Gerais - Eletrificacao na Mineracao",
    "region": "Minas Gerais",
    "sector": "Mineracao",
    "currentSource": "Diesel",
    "recommendedRoute": "Eletrificacao",
    "monthlyCostDefault": 210000,
    "investmentDefault": 2650000,
    "lat": -19.9167,
    "lng": -43.9345,
    "layerType": "industrias"
  },
  {
    "id": "pe-saf-refino",
    "name": "Pernambuco - SAF para Cadeia de Combustiveis",
    "region": "Pernambuco",
    "sector": "Refino",
    "currentSource": "Combustivel fossil",
    "recommendedRoute": "SAF",
    "monthlyCostDefault": 250000,
    "investmentDefault": 5100000,
    "lat": -8.0476,
    "lng": -34.877,
    "layerType": "saf"
  },
  {
    "id": "pr-fertilizantes-biometano",
    "name": "Parana - Planta de Biometano para Fertilizantes",
    "region": "Parana",
    "sector": "Fertilizantes",
    "currentSource": "Gas natural",
    "recommendedRoute": "Biometano",
    "monthlyCostDefault": 175000,
    "investmentDefault": 1700000,
    "lat": -25.4284,
    "lng": -49.2733,
    "layerType": "fertilizantes"
  },
  {
    "id": "rj-renovavel-quimica",
    "name": "Rio de Janeiro - Contratacao de Renovavel",
    "region": "Rio de Janeiro",
    "sector": "Quimica",
    "currentSource": "Energia eletrica convencional",
    "recommendedRoute": "Energia renovavel contratada",
    "monthlyCostDefault": 190000,
    "investmentDefault": 980000,
    "lat": -22.9068,
    "lng": -43.1729,
    "layerType": "energia_renovavel"
  }
]
